{
  "locations": [
    {
      "name": "Franklin Road Flea Market",
      "address": "54 Franklin Rd, Newnan, GA 30263",
      "county": "Coweta",
      "type": "Little Free Pantry",
      "description": "Take what you need, leave what you can.",
      "schedule": "24/7 access",
      "website": "",
      "lat": 33.3854297,
      "lng": -84.82762679999999
    },
    {
      "name": "Coweta County Jail Parking Lot",
      "address": "560 Greison Trail Newnan GA 30263",
      "county": "Coweta",
      "type": "Little Free Pantry",
      "description": "Take what you need, leave what you can.",
      "schedule": "24/7 access",
      "website": "",
      "lat": 33.3818052,
      "lng": -84.783293
    },
    {
      "name": "Lovejoy Church",
      "address": "60 E Washington St Newnan, GA 30263",
      "county": "Coweta",
      "type": "Little Free Pantry",
      "description": "Take what you need, leave what you can.",
      "schedule": "24/7 access",
      "website": "",
      "lat": 33.3750636,
      "lng": -84.7944718
    },
    {
      "name": "Behind Higgins Hillcrest Chapel",
      "address": "26-2 Sutherland Dr, Newnan, GA 30263",
      "county": "Coweta",
      "type": "Little Free Pantry",
      "description": "Take what you need, leave what you can.",
      "schedule": "24/7 access",
      "website": "",
      "lat": 33.3813419,
      "lng": -84.791761
    },
    {
      "name": "Mt Carmel UMC Newnan",
      "address": "958 Summers McKoy Road, Newnan, GA 30263",
      "county": "Coweta",
      "type": "Little Free Pantry",
      "description": "Take what you need, leave what you can.",
      "schedule": "24/7 access",
      "website": "",
      "lat": 33.4057761,
      "lng": -84.9182526
    },
    {
      "name": "Newnan Chapel UMC",
      "address": "72 Robinson St Newnan, GA 30263 ",
      "county": "Coweta",
      "type": "Little Free Pantry",
      "description": "Take what you need, leave what you can.",
      "schedule": "24/7 access",
      "website": "",
      "lat": 33.3677075,
      "lng": -84.7941683
    },
    {
      "name": "Fellowship Baptist Chapel",
      "address": "1188 Tommy Lee Cook Rd, Palmetto, GA 30268",
      "county": "Coweta",
      "type": "Little Free Pantry",
      "description": "Take what you need, leave what you can.",
      "schedule": "24/7 access",
      "website": "",
      "lat": 33.5047542,
      "lng": -84.6951644
    },
    {
      "name": "Resurrection Lutheran Church",
      "address": "1250 Lora Smith Rd, Newnan, GA 30265",
      "county": "Coweta",
      "type": "Little Free Pantry",
      "description": "Take what you need, leave what you can.",
      "schedule": "24/7 access",
      "website": "",
      "lat": 33.4059494,
      "lng": -84.6979928
    },
    {
      "name": "Oak Lawn Baptist Church",
      "address": "482 Pine Rd, Newnan, GA 30263",
      "county": "Coweta",
      "type": "Little Free Pantry",
      "description": "Take what you need, leave what you can.",
      "schedule": "24/7 access",
      "website": "",
      "lat": 33.3329027,
      "lng": -84.7835679
    },
    {
      "name": "Bethlehem Baptist Church",
      "address": "2194 W Grantville Rd, Newnan, GA 30263",
      "county": "Coweta",
      "type": "Little Free Pantry",
      "description": "Take what you need, leave what you can.",
      "schedule": "24/7 access",
      "website": "",
      "lat": 33.2919971,
      "lng": -84.8298686
    },
    {
      "name": "Whitely Farms",
      "address": "901 Bob Smith Rd, Sharpsburg, GA 30277",
      "county": "Coweta",
      "type": "Little Free Pantry",
      "description": "Take what you need, leave what you can.",
      "schedule": "24/7 access",
      "website": "",
      "lat": 33.3719911,
      "lng": -84.64162139999999
    },
    {
      "name": "Coweta County Department of Family and Children Services",
      "address": "533 Highway 29 North Newnan GA 30263",
      "county": "Coweta",
      "type": "Little Free Pantry",
      "description": "Take what you need, leave what you can.",
      "schedule": "24/7 access",
      "website": "",
      "lat": 33.4006556,
      "lng": -84.79306760000001
    },
    {
      "name": "Moreland UMC",
      "address": "16 Church St, Moreland, GA 30259",
      "county": "Coweta",
      "type": "Little Free Pantry",
      "description": "Take what you need, leave what you can.",
      "schedule": "24/7 access",
      "website": "",
      "lat": 33.2863525,
      "lng": -84.7685607
    },
    {
      "name": "Senoia United Methodist Church",
      "address": "229 Bridge St, Senoia, GA 30276",
      "county": "Coweta",
      "type": "Little Free Pantry",
      "description": "Take what you need, leave what you can.",
      "schedule": "24/7 access",
      "website": "",
      "lat": 33.3004662,
      "lng": -84.5515061
    },
    {
      "name": "Rutledge Center Inc",
      "address": "61 Hospital Rd, Newnan, GA 30263",
      "county": "Coweta",
      "type": "Little Free Pantry",
      "description": "Take what you need, leave what you can.",
      "schedule": "24/7 access",
      "website": "",
      "lat": 33.3945026,
      "lng": -84.8128263
    },
    {
      "name": "BTG Community Outreach (Bridging the Gap)",
      "address": "19 First Ave, Newnan, GA 30263",
      "county": "Coweta",
      "type": "Food Distribution",
      "description": "Offers food distribution on Wednesdays at 5 p.m. and Saturdays at 8 a.m. They also provide home delivery for residents who are shut-in or lack transportation.",
      "schedule": "Wednesdays 5:00 PM - 7:00 PM, Saturdays 8:00 AM - 1:00 PM",
      "website": "https://btgcommunity.org/food-distribution/",
      "lat": 33.3725304,
      "lng": -84.80289189999999
    },
    {
      "name": "Coweta Community Food Pantry (One Roof Outreach)",
      "address": "255 Temple Ave, Newnan, GA 30263",
      "county": "Coweta",
      "type": "Food Pantry",
      "description": "Open on Mondays, Wednesdays, and Fridays from 1–4 p.m. Patrons can pick up food boxes twice a month.",
      "schedule": "Mondays, Wednesdays, Fridays 1:00 PM - 4:00 PM",
      "website": "https://www.oneroofoutreach.org/assistance",
      "lat": 33.3854552,
      "lng": -84.8170602
    },
    {
      "name": "First Baptist Church (A.O. Mission Center)",
      "address": "15 W. Washington St, Newnan, GA 30263",
      "county": "Coweta",
      "type": "Food Pantry",
      "description": "Provides food assistance on Mondays, Tuesdays, and Wednesdays from 9–11 a.m.",
      "schedule": "Mondays, Tuesdays, Wednesdays, Thursdays 9:00 AM - 11:00 AM",
      "website": "https://www.fbcnewnan.org/ministries/the-ao-house-mission-center/",
      "lat": 33.375343,
      "lng": -84.8009176
    },
    {
      "name": "The Salvation Army Newnan Service Center",
      "address": "670 Jefferson St, Newnan, GA 30263",
      "county": "Coweta",
      "type": "Food Pantry",
      "description": "Hosts a food pantry on Tuesdays and Thursdays from 9:30 a.m. to 12 p.m. A photo ID and completed paperwork are required.",
      "schedule": "Tuesdays, Thursdays 9:30 AM - 12:00 PM",
      "website": "https://www.facebook.com/TSANewnan/",
      "lat": 33.3919416,
      "lng": -84.7802667
    },
    {
      "name": "The I-58 Mission",
      "address": "2450 GA-85, Senoia, GA 30276",
      "county": "Coweta",
      "type": "Food Distribution",
      "description": "Distributes food on Thursdays from 9:30 a.m. to 2:30 p.m. When checking in for the first time, you will be asked for your Driver’s License (or other state-issued picture ID) and to complete an information form about you and your household.",
      "schedule": "Thursdays 8:30 AM - 2:30 PM",
      "website": "https://thei58mission.org/ministries/",
      "lat": 33.3004769,
      "lng": -84.5383891
    },
    {
      "name": "Yeager Road Community Resource Center",
      "address": "265 Yeager Rd, Newnan, GA 30263",
      "county": "Coweta",
      "type": "Mobile Food Pantry",
      "description": "Offers a mobile food pantry on the second Saturday of each month.",
      "schedule": "Second Saturday of each month",
      "website": "https://yeagerrdresourcecenter.org/food-pantry",
      "lat": 33.3513928,
      "lng": -84.7401086
    },
    {
      "name": "Newnan City Police Department Little Free Pantry",
      "address": "Newnan City Police Department parking lot, Newnan, GA 30263",
      "county": "Coweta",
      "type": "Little Free Pantry",
      "description": "Free 24-hour little pantry available for emergency needs.",
      "schedule": "24/7 access",
      "website": "",
      "lat": 33.3806716,
      "lng": -84.79965729999999
    },
    {
      "name": "Crossroads Food Pantry",
      "address": "2564 GA-154, Newnan, GA 30265",
      "county": "Coweta",
      "type": "Food Pantry",
      "description": "The Crossroads Food Pantry is located at our Thomas Crossroads Campus. Call 770-254-0291 on Tuesday's at 8am to schedule an appointment for the following week.",
      "schedule": "Mondays 3:00PM-6:30PM",
      "website": "https://www.crossroadsonline.org/food-pantry",
      "lat": 33.4007667,
      "lng": -84.6841948
    },
    {
      "name": "New City Church Peachtree City - City Bridges Food Pantry",
      "address": "320 Dividend Dr Peachtree City, GA 30269",
      "county": "Fayette",
      "type": "Food Pantry",
      "description": "Take what you need, leave what you can.",
      "schedule": "Wed 10am-Noon, 2nd & 4th Saturdays 10am-Noon",
      "website": "https://www.newcitychurch.net/citybridges",
      "active": true,
      "lat": 33.3819626,
      "lng": -84.5825588
    },
    {
      "name": "New City Church Fairburn - City Bridges Food Pantry",
      "address": "3355 Old Jonesboro Rd Fairburn, GA 30213",
      "county": "Fulton",
      "type": "Food Pantry",
      "description": "Take what you need, leave what you can.",
      "schedule": "Tues 2pm-4pm, Sat 10am-Noon",
      "website": "https://www.newcitychurch.net/citybridges",
      "active": true,
      "lat": 33.5540704,
      "lng": -84.50192659999999
    },
    {
      "name": "Real Life Center",
      "address": "975 Highway 74 North, Building E, Tyrone, Georgia 30290",
      "county": "Fayette",
      "type": "Food Pantry",
      "description": "Take what you need, leave what you can.",
      "schedule": "Monday-Thursday, 9 am - noon, Thursday, 5 - 7 pm",
      "website": "https://www.reallifecenter.org/market-and-food-pantry",
      "active": true,
      "lat": 33.4507431,
      "lng": -84.5877082
    },
    {
      "name": "Mobile Food Pantry hosted by Grace Church",
      "address": "164 Flat Creek Trail, Fayetteville, Georgia",
      "county": "Fayette",
      "type": "Mobile Food Pantry",
      "description": "To receive food, individuals must register and present one of the following forms of identification: - A valid Georgia driver's license - A state-issued ID - A passport Food is distributed per household address. If multiple families live at the same address, only one person from that address may register and receive food. Once a month (usually the third Thursday), Check-in begins at 8 AM, Car line begins at 10 AM (approximately), Breakfast is served from 8 AM to 10 AM",
      "schedule": "3rd Thursday of each month at 8:00 AM - 11:15 AM",
      "website": "https://www.reallifecenter.org/rlc-monthly-mfp",
      "active": true,
      "lat": 33.4461613,
      "lng": -84.5415278
    }
  ]
}