{
  "locations": [
    {
      "name": "Franklin Road Flea Market",
      "address": "54 Franklin Rd, Newnan, GA 30263",
      "county": "Coweta",
      "type": "Little Free Pantry",
      "description": "Take what you need, leave what you can.",
      "lat": 33.3854297,
      "lng": -84.82762679999999
    },
    {
      "name": "Coweta County Jail Parking Lot",
      "address": "560 Greison Trail Newnan GA 30263",
      "county": "Coweta",
      "type": "Little Free Pantry",
      "description": "Take what you need, leave what you can.",
      "lat": 33.3818052,
      "lng": -84.783293
    },
    {
      "name": "Lovejoy Church",
      "address": "60 E Washington St Newnan, GA 30263",
      "county": "Coweta",
      "type": "Little Free Pantry",
      "description": "Take what you need, leave what you can.",
      "lat": 33.3750636,
      "lng": -84.7944718
    },
    {
      "name": "Behind Higgins Hillcrest Chapel",
      "address": "26-2 Sutherland Dr, Newnan, GA 30263",
      "county": "Coweta",
      "type": "Little Free Pantry",
      "description": "Take what you need, leave what you can.",
      "lat": 33.3813419,
      "lng": -84.791761
    },
    {
      "name": "Mt Carmel UMC Newnan",
      "address": "958 Summers McKoy Road, Newnan, GA 30263",
      "county": "Coweta",
      "type": "Little Free Pantry",
      "description": "Take what you need, leave what you can.",
      "lat": 33.4057761,
      "lng": -84.9182526
    },
    {
      "name": "Newnan Chapel UMC",
      "address": "72 Robinson St Newnan, GA 30263 ",
      "county": "Coweta",
      "type": "Little Free Pantry",
      "description": "Take what you need, leave what you can.",
      "lat": 33.3677075,
      "lng": -84.7941683
    },
    {
      "name": "Fellowship Baptist Chapel",
      "address": "1188 Tommy Lee Cook Rd, Palmetto, GA 30268",
      "county": "Coweta",
      "type": "Little Free Pantry",
      "description": "Take what you need, leave what you can.",
      "lat": 33.5047542,
      "lng": -84.6951644
    },
    {
      "name": "Resurrection Lutheran Church",
      "address": "1250 Lora Smith Rd, Newnan, GA 30265",
      "county": "Coweta",
      "type": "Little Free Pantry",
      "description": "Take what you need, leave what you can.",
      "lat": 33.4059494,
      "lng": -84.6979928
    },
    {
      "name": "Oak Lawn Baptist Church",
      "address": "482 Pine Rd, Newnan, GA 30263",
      "county": "Coweta",
      "type": "Little Free Pantry",
      "description": "Take what you need, leave what you can.",
      "lat": 33.3329027,
      "lng": -84.7835679
    },
    {
      "name": "Bethlehem Baptist Church",
      "address": "2194 W Grantville Rd, Newnan, GA 30263",
      "county": "Coweta",
      "type": "Little Free Pantry",
      "description": "Take what you need, leave what you can.",
      "lat": 33.2919971,
      "lng": -84.8298686
    },
    {
      "name": "Whitely Farms",
      "address": "901 Bob Smith Rd, Sharpsburg, GA 30277",
      "county": "Coweta",
      "type": "Little Free Pantry",
      "description": "Take what you need, leave what you can.",
      "lat": 33.3719911,
      "lng": -84.64162139999999
    },
    {
      "name": "Coweta County Department of Family and Children Services",
      "address": "533 Highway 29 North Newnan GA 30263",
      "county": "Coweta",
      "type": "Little Free Pantry",
      "description": "Take what you need, leave what you can.",
      "lat": 33.4006556,
      "lng": -84.79306760000001
    },
    {
      "name": "Moreland UMC",
      "address": "16 Church St, Moreland, GA 30259",
      "county": "Coweta",
      "type": "Little Free Pantry",
      "description": "Take what you need, leave what you can.",
      "lat": 33.2863525,
      "lng": -84.7685607
    },
    {
      "name": "Senoia United Methodist Church",
      "address": "229 Bridge St, Senoia, GA 30276",
      "county": "Coweta",
      "type": "Little Free Pantry",
      "description": "Take what you need, leave what you can.",
      "lat": 33.3004662,
      "lng": -84.5515061
    },
    {
      "name": "Rutledge Center Inc",
      "address": "61 Hospital Rd, Newnan, GA 30263",
      "county": "Coweta",
      "type": "Little Free Pantry",
      "description": "Take what you need, leave what you can.",
      "lat": 33.3945026,
      "lng": -84.8128263
    }
  ]
}